$ADVER,3080,2.4P
$GPRMC,134730.361,A,5540.3220,N,01231.2858,E,1.06,86.57,041112,,,A*55
$GPGGA,134731.361,5540.3252,N,01231.2946,E,1,10,0.8,36.1,M,41.5,M,,0000*6C
$GPGSA,A,3,03,22,06,19,11,14,32,01,28,18,,,1.8,0.8,1.6*3F
$GPRMC,134731.361,A,5540.3252,N,01231.2946,E,1.42,93.80,041112,,,A*51
$GPVTG,93.80,T,,M,1.42,N,2.6,K,A*3C
$GPGGA,134732.000,5540.3244,N,01231.2941,E,1,10,0.8,31.7,M,41.5,M,,0000*6A
$GPGSA,A,3,03,22,06,19,11,14,32,01,28,18,,,1.8,0.8,1.6*3F
$GPGSV,3,1,11,19,65,185,25,11,54,274,22,22,51,072,28,01,37,274,18*7D
$GPGSV,3,2,11,03,35,170,25,14,33,110,26,32,26,212,20,06,24,158,22*77
$GPGSV,3,3,11,28,22,320,19,18,15,055,19,09,07,033,*41
$GPRMC,134732.000,A,5540.3244,N,01231.2941,E,1.75,90.16,041112,,,A*5E
$GPVTG,90.16,T,,M,1.75,N,3.2,K,A*31
$GPGGA,134733.000,5540.3231,N,01231.2938,E,1,10,0.8,24.9,M,41.5,M,,0000*6D
$GPGSA,A,3,03,22,06,19,11,14,32,01,28,18,,,1.8,0.8,1.6*3F
$GPRMC,134733.000,A,5540.3231,N,01231.2938,E,1.83,113.00,041112,,,A*67
$GPVTG,113.00,T,,M,1.83,N,3.4,K,A*03
$GPGGA,134734.000,5540.3233,N,01231.2941,E,1,10,0.8,23.7,M,41.5,M,,0000*6F
$GPGSA,A,3,03,22,06,19,11,14,32,01,28,18,,,1.8,0.8,1.6*3F
$GPRMC,134734.000,A,5540.3233,N,01231.2941,E,1.23,107.22,041112,,,A*63
$GPVTG,107.22,T,,M,1.23,N,2.3,K,A*0A
$GPGGA,134735.000,5540.3232,N,01231.2946,E,1,10,0.8,23.6,M,41.5,M,,0000*69
$GPGSA,A,3,03,22,06,19,11,14,32,01,28,18,,,1.8,0.8,1.6*3F
$GPRMC,134735.000,A,5540.3232,N,01231.2946,E,1.97,88.98,041112,,,A*5C
$GPVTG,88.98,T,,M,1.97,N,3.6,K,A*36
$GPGGA,134736.000,5540.3238,N,01231.2961,E,1,09,1.0,23.7,M,41.5,M,,0000*65
$GPGSA,A,3,03,22,06,19,11,14,32,01,28,,,,2.1,1.0,1.9*3A
$GPRMC,134736.000,A,5540.3238,N,01231.2961,E,2.44,84.72,041112,,,A*55
$GPVTG,84.72,T,,M,2.44,N,4.5,K,A*37
$GPGGA,134737.000,5540.3247,N,01231.2959,E,1,09,1.0,22.6,M,41.5,M,,0000*67
$GPGSA,A,3,03,22,06,19,11,14,32,01,28,,,,2.1,1.0,1.9*3A
$GPGSV,3,1,11,19,65,185,20,11,54,274,21,22,51,072,30,01,37,274,19*73
$GPGSV,3,2,11,03,35,170,25,14,33,110,26,32,26,212,19,06,24,158,22*7D
$GPGSV,3,3,11,28,22,320,26,18,15,055,,09,07,033,*45
$GPRMC,134737.000,A,5540.3247,N,01231.2959,E,2.56,78.18,041112,,,A*5B
$GPVTG,78.18,T,,M,2.56,N,4.7,K,A*39
$GPGGA,134738.000,5540.3246,N,01231.2970,E,1,10,0.8,20.6,M,41.5,M,,0000*61
$GPGSA,A,3,03,22,06,19,11,14,32,01,28,18,,,1.8,0.8,1.6*3F
$GPRMC,134738.000,A,5540.3246,N,01231.2970,E,2.26,97.21,041112,,,A*52
$GPVTG,97.21,T,,M,2.26,N,4.2,K,A*30
$GPGGA,134739.000,5540.3248,N,01231.2980,E,1,10,0.8,20.2,M,41.5,M,,0000*65
$GPGSA,A,3,03,22,06,19,11,14,32,01,28,18,,,1.8,0.8,1.6*3F
$GPRMC,134739.000,A,5540.3248,N,01231.2980,E,2.49,85.26,041112,,,A*5F
$GPVTG,85.26,T,,M,2.49,N,4.6,K,A*39
$GPGGA,134740.000,5540.3248,N,01231.2992,E,1,09,0.9,20.2,M,41.5,M,,0000*61
$GPGSA,A,3,03,22,06,19,11,14,32,28,18,,,,1.9,0.9,1.6*3E
$GPRMC,134740.000,A,5540.3248,N,01231.2992,E,2.02,106.22,041112,,,A*63
$GPVTG,106.22,T,,M,2.02,N,3.7,K,A*0E
$GPGGA,134741.000,5540.3247,N,01231.3001,E,1,08,1.0,19.0,M,41.5,M,,0000*6C
$GPGSA,A,3,03,22,06,19,14,32,28,18,,,,,2.1,1.0,1.8*33
$GPRMC,134741.000,A,5540.3247,N,01231.3001,E,1.94,108.84,041112,,,A*61
$GPVTG,108.84,T,,M,1.94,N,3.6,K,A*01
$GPGGA,134742.000,5540.3245,N,01231.3009,E,1,07,1.0,17.9,M,41.5,M,,0000*6D
$GPGSA,A,3,03,22,19,14,32,28,18,,,,,,2.2,1.0,2.0*3D
$GPGSV,3,1,11,19,65,185,33,11,54,274,,22,51,072,35,01,37,274,*7F
$GPGSV,3,2,11,03,35,170,35,14,33,110,31,32,26,212,28,06,24,158,*78
$GPGSV,3,3,11,28,22,320,25,18,15,055,22,09,07,033,24*40
$GPRMC,134742.000,A,5540.3245,N,01231.3009,E,1.20,128.27,041112,,,A*6C
$GPVTG,128.27,T,,M,1.20,N,2.2,K,A*00
$GPGGA,134743.000,5540.3243,N,01231.3013,E,1,08,1.0,17.6,M,41.5,M,,0000*61
$GPGSA,A,3,03,22,06,19,14,32,28,18,,,,,2.1,1.0,1.8*33
$GPRMC,134743.000,A,5540.3243,N,01231.3013,E,0.65,135.91,041112,,,A*61
$GPVTG,135.91,T,,M,0.65,N,1.2,K,A*02
$GPGGA,134744.000,5540.3241,N,01231.3016,E,1,08,1.0,17.7,M,41.5,M,,0000*60
$GPGSA,A,3,03,22,06,19,14,32,28,18,,,,,2.1,1.0,1.8*33
$GPRMC,134744.000,A,5540.3241,N,01231.3016,E,1.02,153.79,041112,,,A*67
$GPVTG,153.79,T,,M,1.02,N,1.9,K,A*0F
$GPGGA,134745.000,5540.3237,N,01231.3015,E,1,09,0.9,17.6,M,41.5,M,,0000*6B
$GPGSA,A,3,03,22,06,19,01,14,32,28,18,,,,2.0,0.9,1.8*3B
$GPRMC,134745.000,A,5540.3237,N,01231.3015,E,0.90,179.89,041112,,,A*69
$GPVTG,179.89,T,,M,0.90,N,1.7,K,A*0C
$GPGGA,134746.000,5540.3235,N,01231.3012,E,1,09,0.9,17.9,M,41.5,M,,0000*62
$GPGSA,A,3,03,22,06,19,01,14,32,28,18,,,,2.0,0.9,1.8*3B
$GPRMC,134746.000,A,5540.3235,N,01231.3012,E,1.36,204.84,041112,,,A*66
$GPVTG,204.84,T,,M,1.36,N,2.5,K,A*04
$GPGGA,134747.000,5540.3231,N,01231.3010,E,1,09,1.0,17.4,M,41.5,M,,0000*60
$GPGSA,A,3,03,22,06,19,01,14,32,11,28,,,,2.1,1.0,1.9*3A
$GPGSV,3,1,11,19,65,185,31,11,54,274,17,22,51,072,28,01,37,274,15*73
$GPGSV,3,2,11,03,35,170,32,14,33,110,33,32,26,212,24,06,24,158,32*70
$GPGSV,3,3,11,28,22,320,20,18,15,055,,09,07,033,16*44
$GPVTG,174.80,T,,M,1.49,N,2.8,K,A*01
$GPGGA,134748.000,5540.3227,N,01231.3006,E,1,10,0.8,16.5,M,41.5,M,,0000*6E
$GPGSA,A,3,03,22,06,19,01,14,32,11,28,18,,,1.8,0.8,1.6*3F
$GPRMC,134748.000,A,5540.3227,N,01231.3006,E,1.61,203.73,041112,,,A*63
$GPVTG,203.73,T,,M,1.61,N,3.0,K,A*0D
$GPGGA,134749.000,5540.3225,N,01231.2999,E,1,10,0.8,16.3,M,41.5,M,,0000*65
$GPGSA,A,3,03,22,06,19,01,14,32,11,28,18,,,1.8,0.8,1.6*3F
$GPRMC,134749.000,A,5540.3225,N,01231.2999,E,1.25,199.58,041112,,,A*67
$GPVTG,199.58,T,,M,1.25,N,2.3,K,A*06
$GPGGA,134750.000,5540.3221,N,01231.2994,E,1,10,0.8,15.9,M,41.5,M,,0000*6D
$GPGSA,A,3,03,22,06,19,01,14,32,11,28,18,,,1.8,0.8,1.6*3F
$GPRMC,134750.000,A,5540.3221,N,01231.2994,E,1.70,198.71,041112,,,A*6C
$GPVTG,198.71,T,,M,1.70,N,3.1,K,A*0F
$GPGGA,134751.000,5540.3216,N,01231.2991,E,1,10,0.8,15.5,M,41.5,M,,0000*61
$GPGSA,A,3,03,22,06,19,01,14,32,11,28,18,,,1.8,0.8,1.6*3F
$GPRMC,134751.000,A,5540.3216,N,01231.2991,E,1.84,198.52,041112,,,A*66
$GPVTG,198.52,T,,M,1.84,N,3.4,K,A*00
$GPGGA,134752.000,5540.3212,N,01231.2984,E,1,10,0.8,15.3,M,41.5,M,,0000*64
$GPGSA,A,3,03,22,06,19,01,14,32,11,28,18,,,1.8,0.8,1.6*3F
$GPGSV,3,1,12,19,65,185,34,11,54,274,27,22,51,072,29,01,37,274,25*74
$GPGSV,3,2,12,03,35,170,32,14,33,110,30,32,26,212,31,06,24,158,23*74
$GPGSV,3,3,12,28,22,320,24,18,15,055,23,09,07,033,16,33,00,000,23*73
$GPRMC,134752.000,A,5540.3212,N,01231.2984,E,1.57,218.08,041112,,,A*6F
$GPVTG,218.08,T,,M,1.57,N,2.9,K,A*06
$GPGGA,134753.000,5540.3206,N,01231.2981,E,1,10,0.8,15.0,M,41.5,M,,0000*66
$GPGSA,A,3,03,22,06,19,01,14,32,11,28,18,,,1.8,0.8,1.6*3F
$GPRMC,134753.000,A,5540.3206,N,01231.2981,E,1.70,214.58,041112,,,A*62
$GPVTG,214.58,T,,M,1.70,N,3.2,K,A*00
$GPGGA,134754.000,5540.3202,N,01231.2975,E,1,09,1.0,15.2,M,41.5,M,,0000*6D
$GPGSA,A,3,03,22,06,19,01,14,32,11,18,,,,2.0,1.0,1.8*39
$GPRMC,134754.000,A,5540.3202,N,01231.2975,E,1.79,205.27,041112,,,A*6B
$GPVTG,205.27,T,,M,1.79,N,3.3,K,A*00
$GPGGA,134755.000,5540.3198,N,01231.2971,E,1,09,1.0,15.2,M,41.5,M,,0000*68
$GPGSA,A,3,03,22,06,19,01,14,32,11,18,,,,2.0,1.0,1.8*39
$GPRMC,134755.000,A,5540.3198,N,01231.2971,E,1.42,197.75,041112,,,A*69
$GPVTG,197.75,T,,M,1.42,N,2.6,K,A*03
$GPGGA,134756.000,5540.3194,N,01231.2967,E,1,09,1.0,15.2,M,41.5,M,,0000*60
$GPGSA,A,3,03,22,06,19,01,14,32,11,18,,,,2.0,1.0,1.8*39
$GPRMC,134756.000,A,5540.3194,N,01231.2967,E,1.24,192.53,041112,,,A*60
$GPVTG,192.53,T,,M,1.24,N,2.3,K,A*07
$GPGGA,134757.000,5540.3191,N,01231.2965,E,1,10,0.8,15.3,M,41.5,M,,0000*66
$GPGSA,A,3,03,22,06,19,01,14,32,11,28,18,,,1.8,0.8,1.6*3F
$GPGSV,3,1,12,19,65,185,34,11,54,274,23,22,51,072,31,01,37,274,24*78
$GPGSV,3,2,12,03,35,170,36,14,33,110,37,32,26,212,31,06,24,158,30*75
$GPGSV,3,3,12,28,22,320,19,18,15,055,23,09,07,033,18,33,00,000,25*75
$GPRMC,134757.000,A,5540.3191,N,01231.2965,E,1.30,188.68,041112,,,A*60
$GPVTG,188.68,T,,M,1.30,N,2.4,K,A*06
$GPGGA,134758.000,5540.3187,N,01231.2963,E,1,10,0.8,15.0,M,41.5,M,,0000*6B
$GPGSA,A,3,03,22,06,19,01,14,32,11,28,18,,,1.8,0.8,1.6*3F
$GPRMC,134758.000,A,5540.3187,N,01231.2963,E,1.13,202.62,041112,,,A*64
$GPVTG,202.62,T,,M,1.13,N,2.1,K,A*09
$GPGGA,134759.000,5540.3186,N,01231.2959,E,1,10,0.8,14.9,M,41.5,M,,0000*6A
$GPGSA,A,3,03,22,06,19,01,14,32,11,28,18,,,1.8,0.8,1.6*3F
$GPRMC,134759.000,A,5540.3186,N,01231.2959,E,1.35,218.48,041112,,,A*6A
$GPVTG,218.48,T,,M,1.35,N,2.5,K,A*0A
$GPGGA,134800.000,5540.3182,N,01231.2953,E,1,10,0.8,14.4,M,41.5,M,,0000*6A
$GPGSA,A,3,03,22,06,19,01,14,32,11,28,18,,,1.8,0.8,1.6*3F
$GPRMC,134800.000,A,5540.3182,N,01231.2953,E,1.14,232.39,041112,,,A*6A
$GPVTG,232.39,T,,M,1.14,N,2.1,K,A*03
$GPGGA,134801.000,5540.3180,N,01231.2947,E,1,10,0.8,13.9,M,41.5,M,,0000*66
$GPGSA,A,3,03,22,06,19,01,14,32,11,28,18,,,1.8,0.8,1.6*3F
$GPRMC,134801.000,A,5540.3180,N,01231.2947,E,1.11,229.99,041112,,,A*69
$GPVTG,229.99,T,,M,1.11,N,2.1,K,A*06
$GPGGA,134802.000,5540.3177,N,01231.2944,E,1,10,0.8,13.8,M,41.5,M,,0000*6F
$GPGSA,A,3,03,22,06,19,01,14,32,11,28,18,,,1.8,0.8,1.6*3F
$GPGSV,3,1,11,19,65,185,34,11,54,274,22,22,51,072,27,01,37,274,18*72
$GPGSV,3,2,11,03,35,170,36,14,33,110,31,32,26,212,26,06,24,158,34*72
$GPGSV,3,3,11,28,22,320,20,18,15,055,22,09,07,033,17*45
$GPRMC,134802.000,A,5540.3177,N,01231.2944,E,1.52,200.17,041112,,,A*6B
$GPVTG,200.17,T,,M,1.52,N,2.8,K,A*05
$GPGGA,134803.000,5540.3171,N,01231.2942,E,1,10,0.8,13.6,M,41.5,M,,0000*60
$GPGSA,A,3,03,22,06,19,01,14,32,11,28,18,,,1.8,0.8,1.6*3F
$GPRMC,134803.000,A,5540.3171,N,01231.2942,E,1.96,189.93,041112,,,A*6C
$GPVTG,189.93,T,,M,1.96,N,3.6,K,A*0C
$GPGGA,134804.000,5540.3166,N,01231.2939,E,1,10,0.8,13.2,M,41.5,M,,0000*69
$GPGSA,A,3,03,22,06,19,01,14,32,11,28,18,,,1.8,0.8,1.6*3F
$GPRMC,134804.000,A,5540.3166,N,01231.2939,E,1.36,200.48,041112,,,A*6F
$GPVTG,200.48,T,,M,1.36,N,2.5,K,A*00
$GPGGA,134805.000,5540.3160,N,01231.2940,E,1,10,0.8,12.8,M,41.5,M,,0000*6B
$GPGSA,A,3,03,22,06,19,01,14,32,11,28,18,,,1.8,0.8,1.6*3F
$GPRMC,134805.000,A,5540.3160,N,01231.2940,E,1.31,195.71,041112,,,A*64
$GPVTG,195.71,T,,M,1.31,N,2.4,K,A*03
$GPGGA,134806.000,5540.3152,N,01231.2945,E,1,10,0.8,12.8,M,41.5,M,,0000*6C
$GPGSA,A,3,03,22,06,19,01,14,32,11,28,18,,,1.8,0.8,1.6*3F
$GPRMC,134806.000,A,5540.3152,N,01231.2945,E,1.88,191.48,041112,,,A*6F
$GPVTG,191.48,T,,M,1.88,N,3.5,K,A*0F
$GPGGA,134807.000,5540.3144,N,01231.2954,E,1,09,1.0,13.9,M,41.5,M,,0000*6B
$GPGSA,A,3,03,22,06,19,01,14,32,11,18,,,,2.0,1.0,1.8*39
$GPGSV,3,1,11,19,65,185,34,11,54,274,23,22,51,072,33,01,37,274,24*79
$GPGSV,3,2,11,03,35,170,22,14,33,110,25,32,26,212,18,06,24,158,21*7B
$GPGSV,3,3,11,28,22,320,12,18,15,055,17,09,07,033,17*42
$GPVTG,180.71,T,,M,0.98,N,1.8,K,A*0A
$GPGGA,134808.000,5540.3133,N,01231.2962,E,1,07,1.1,15.0,M,41.5,M,,0000*61
$GPGSA,A,3,03,22,19,01,32,11,18,,,,,,2.2,1.1,1.9*38
$GPRMC,134808.000,A,5540.3133,N,01231.2962,E,2.20,183.93,041112,,,A*67
$GPVTG,183.93,T,,M,2.20,N,4.1,K,A*08
$GPGGA,134809.000,5540.3125,N,01231.2966,E,1,08,1.1,15.2,M,41.5,M,,0000*6E
$GPGSA,A,3,03,22,19,01,14,32,11,18,,,,,2.2,1.1,1.9*3D
$GPRMC,134809.000,A,5540.3125,N,01231.2966,E,3.06,169.62,041112,,,A*6A
$GPVTG,169.62,T,,M,3.06,N,5.7,K,A*00
$GPGGA,134810.000,5540.3118,N,01231.2972,E,1,06,1.2,15.8,M,41.5,M,,0000*6A
$GPGSA,A,3,03,22,01,14,32,18,,,,,,,2.9,1.2,2.6*31
$GPRMC,134810.000,A,5540.3118,N,01231.2972,E,3.73,163.95,041112,,,A*69
$GPVTG,163.95,T,,M,3.73,N,6.9,K,A*0D
$GPGGA,134811.000,5540.3106,N,01231.2975,E,1,03,2.9,16.8,M,41.5,M,,0000*6D
$GPGSA,A,2,03,32,18,,,,,,,,,,3.1,2.9,1.0*30
$GPRMC,134811.000,A,5540.3106,N,01231.2975,E,4.13,182.17,041112,,,A*64
$GPVTG,182.17,T,,M,4.13,N,7.6,K,N*08
$GPGGA,134812.000,5540.3094,N,01231.2974,E,6,00,50.0,16.8,M,41.5,M,,0000*5F
$GPGSA,A,2,,,,,,,,,,,,,50.0,50.0,50.0*06
$GPGSV,3,1,11,19,65,185,09,11,54,274,07,22,51,072,07,01,37,274,*70
$GPGSV,3,2,11,03,35,170,12,14,33,110,11,32,26,212,15,06,24,158,*71
$GPGSV,3,3,11,28,22,320,,18,15,055,,09,07,033,15*45
$GPRMC,134812.000,A,5540.3094,N,01231.2974,E,4.13,182.17,041112,,,E*68
$GPVTG,182.17,T,,M,4.13,N,7.6,K,N*08
$GPGGA,134813.000,5540.3083,N,01231.2974,E,6,00,50.0,16.9,M,41.5,M,,0000*59
$GPGSA,A,2,,,,,,,,,,,,,50.0,50.0,50.0*06
$GPRMC,134813.000,A,5540.3083,N,01231.2974,E,4.13,182.17,041112,,,E*6F
$GPVTG,182.17,T,,M,4.13,N,7.6,K,N*08
$GPGGA,134814.000,5540.3071,N,01231.2973,E,6,00,50.0,16.9,M,41.5,M,,0000*54
